[
  {
    "id": 1,
    "category": "호텔",
    "name": "멍브로",
    "rating": 3.8,
    "reviewCount": 30,
    "reviewNumber": 13,
    "distance": 11.6,
    "address": "경기 성남시 수정구 태평동",
    "openHours": "월–금 13:00 - 21:00",
    "image": "../public/mock/Global/images/haribo.jpg"
  },
  {
    "id": 2,
    "category": "호텔",
    "name": "퍼피하우스",
    "rating": 4.2,
    "reviewCount": 50,
    "reviewNumber": 21,
    "distance": 9.3,
    "address": "서울 강남구 역삼동",
    "openHours": "매일 10:00 - 20:00",
    "image": "../public/mock/Global/images/haribo.jpg"
  },
  {
    "id": 3,
    "category": "호텔",
    "name": "도그빌리지",
    "rating": 4.5,
    "reviewCount": 74,
    "reviewNumber": 34,
    "distance": 12.1,
    "address": "서울 서초구 서초동",
    "openHours": "월–토 09:00 - 18:00",
    "image": "../public/mock/Global/images/haribo.jpg"
  },
  {
    "id": 4,
    "category": "호텔",
    "name": "반려호텔",
    "rating": 4.1,
    "reviewCount": 40,
    "reviewNumber": 19,
    "distance": 10.5,
    "address": "경기 용인시 수지구",
    "openHours": "화–일 12:00 - 21:00",
    "image": "../public/mock/Global/images/haribo.jpg"
  },
  {
    "id": 5,
    "category": "호텔",
    "name": "펫프렌즈호텔",
    "rating": 3.9,
    "reviewCount": 33,
    "reviewNumber": 15,
    "distance": 8.8,
    "address": "서울 송파구 잠실동",
    "openHours": "매일 09:00 - 22:00",
    "image": "../public/mock/Global/images/haribo.jpg"
  },
  {
    "id": 6,
    "category": "미용실",
    "name": "강아지살롱",
    "rating": 4.7,
    "reviewCount": 60,
    "reviewNumber": 29,
    "distance": 7.6,
    "address": "서울 마포구 합정동",
    "openHours": "월–금 11:00 - 20:00",
    "image": "../public/mock/Global/images/haribo.jpg"
  },
  {
    "id": 7,
    "category": "미용실",
    "name": "헤어퍼피",
    "rating": 3.5,
    "reviewCount": 25,
    "reviewNumber": 10,
    "distance": 13.2,
    "address": "경기 고양시 일산서구",
    "openHours": "수–일 10:00 - 19:00",
    "image": "../public/mock/Global/images/haribo.jpg"
  },
  {
    "id": 8,
    "category": "미용실",
    "name": "도그뷰티샵",
    "rating": 4.8,
    "reviewCount": 81,
    "reviewNumber": 35,
    "distance": 5.3,
    "address": "서울 성동구 성수동",
    "openHours": "월–토 10:00 - 20:00",
    "image": "../public/mock/Global/images/haribo.jpg"
  },
  {
    "id": 9,
    "category": "미용실",
    "name": "멍스타일",
    "rating": 4.0,
    "reviewCount": 38,
    "reviewNumber": 16,
    "distance": 6.4,
    "address": "경기 안양시 동안구",
    "openHours": "매일 11:00 - 21:00",
    "image": "../public/mock/Global/images/haribo.jpg"
  },
  {
    "id": 10,
    "category": "미용실",
    "name": "펫헤어존",
    "rating": 3.6,
    "reviewCount": 29,
    "reviewNumber": 12,
    "distance": 10.9,
    "address": "서울 동작구 사당동",
    "openHours": "화–토 10:00 - 18:00",
    "image": "../public/mock/Global/images/haribo.jpg"
  },
  {
    "id": 11,
    "category": "애견 카페",
    "name": "멍멍카페",
    "rating": 4.3,
    "reviewCount": 45,
    "reviewNumber": 22,
    "distance": 4.7,
    "address": "서울 강서구 화곡동",
    "openHours": "월–일 12:00 - 22:00",
    "image": "../public/mock/Global/images/haribo.jpg"
  },
  {
    "id": 12,
    "category": "애견 카페",
    "name": "펫카페온",
    "rating": 4.0,
    "reviewCount": 33,
    "reviewNumber": 14,
    "distance": 9.8,
    "address": "경기 의정부시 민락동",
    "openHours": "수–일 10:00 - 21:00",
    "image": "../public/mock/Global/images/haribo.jpg"
  },
  {
    "id": 13,
    "category": "애견 카페",
    "name": "개좋아카페",
    "rating": 4.6,
    "reviewCount": 50,
    "reviewNumber": 24,
    "distance": 6.9,
    "address": "서울 은평구 불광동",
    "openHours": "화–일 12:00 - 22:00",
    "image": "../public/mock/Global/images/haribo.jpg"
  },
  {
    "id": 14,
    "category": "애견 카페",
    "name": "도그앤티",
    "rating": 3.7,
    "reviewCount": 27,
    "reviewNumber": 11,
    "distance": 8.2,
    "address": "서울 노원구 공릉동",
    "openHours": "매일 11:00 - 20:00",
    "image": "../public/mock/Global/images/haribo.jpg"
  },
  {
    "id": 15,
    "category": "애견 카페",
    "name": "펫타임",
    "rating": 4.2,
    "reviewCount": 39,
    "reviewNumber": 17,
    "distance": 7.1,
    "address": "경기 하남시 미사동",
    "openHours": "월–토 10:00 - 19:00",
    "image": "../public/mock/Global/images/haribo.jpg"
  },
  {
    "id": 16,
    "category": "호텔",
    "name": "댕댕호텔",
    "rating": 3.9,
    "reviewCount": 35,
    "reviewNumber": 14,
    "distance": 9.9,
    "address": "서울 중랑구 중화동",
    "openHours": "화–일 13:00 - 21:00",
    "image": "../public/mock/Global/images/haribo.jpg"
  },
  {
    "id": 17,
    "category": "미용실",
    "name": "펫코미용실",
    "rating": 4.4,
    "reviewCount": 42,
    "reviewNumber": 20,
    "distance": 11.4,
    "address": "서울 서대문구 홍은동",
    "openHours": "수–일 10:00 - 19:00",
    "image": "../public/mock/Global/images/haribo.jpg"
  },
  {
    "id": 18,
    "category": "애견 카페",
    "name": "멍카페하우스",
    "rating": 4.1,
    "reviewCount": 41,
    "reviewNumber": 19,
    "distance": 6.0,
    "address": "서울 중구 을지로",
    "openHours": "월–토 11:00 - 21:00",
    "image": "../public/mock/Global/images/haribo.jpg"
  },
  {
    "id": 19,
    "category": "호텔",
    "name": "하이펫호텔",
    "rating": 4.5,
    "reviewCount": 53,
    "reviewNumber": 25,
    "distance": 10.2,
    "address": "경기 부천시 원미구",
    "openHours": "매일 09:00 - 22:00",
    "image": "../public/mock/Global/images/haribo.jpg"
  },
  {
    "id": 20,
    "category": "미용실",
    "name": "도그트리머",
    "rating": 3.8,
    "reviewCount": 30,
    "reviewNumber": 13,
    "distance": 12.7,
    "address": "경기 파주시 운정동",
    "openHours": "화–토 10:00 - 18:00",
    "image": "../public/mock/Global/images/haribo.jpg"
  }
]
